City_ID,City,Lat,Lng,Max Temp,Humidity,Cloudiness,Wind Speed,Country,Date
0,isafjordur,66.0755,-23.124,1.29,87,100,2.34,IS,1699739709
1,coronel suarez,-37.4547,-61.9334,21.42,45,1,4.06,AR,1699739709
2,badger,64.8,-147.5333,-9.07,88,75,1.54,US,1699739710
3,mejit,10.2753,170.8646,28.08,80,100,7.44,MH,1699739711
4,llanes,43.4198,-4.7549,17.12,88,100,2.38,ES,1699739711
5,waitangi,-43.9535,-176.5597,13.23,80,2,3.58,NZ,1699739712
6,filadelfia,39.9523,-75.1638,12.94,50,75,5.14,US,1699739656
7,nova sintra,14.8667,-24.7167,22.87,70,50,4.45,CV,1699739713
8,happy valley-goose bay,53.3168,-60.3315,-2.83,74,75,1.03,CA,1699739713
9,lihue,21.9789,-159.3672,27.77,72,100,5.14,US,1699739714
10,coquimbo,-29.9533,-71.3436,17.85,63,0,6.69,CL,1699739630
11,whitehorse,60.7161,-135.0538,0.01,92,75,3.09,CA,1699739715
12,argo,37.6333,22.7333,15.44,71,58,1.8,GR,1699739715
13,saipan,15.1355,145.701,28.39,78,40,8.75,MP,1699739716
14,bethel,41.3712,-73.414,10.05,60,100,2.06,US,1699739717
15,adamstown,-25.066,-130.1015,22.96,81,27,5.96,PN,1699739717
16,puerto baquerizo moreno,-0.9,-89.6,27.55,65,40,6.17,EC,1699739718
17,acarau,-2.8856,-40.12,26.1,76,0,7.56,BR,1699739720
18,grytviken,-54.2811,-36.5092,2.18,96,60,0.73,GS,1699739721
19,magadan,59.5667,150.8,-18.36,80,2,3.89,RU,1699739721
20,maua,-23.6678,-46.4614,32.89,51,5,0.6,BR,1699739582
21,hengchun,22.0042,120.7439,24.72,80,21,6.87,TW,1699739722
22,puerto natales,-51.7236,-72.4875,6.81,55,75,4.91,CL,1699739723
23,kodiak,57.79,-152.4072,2.73,52,100,8.75,US,1699739723
24,vorgashor,67.5833,63.95,-6.79,97,100,4.08,RU,1699739724
25,edinburgh of the seven seas,-37.0676,-12.3116,14.23,84,63,7.91,SH,1699739724
26,sitka,57.0531,-135.33,4.94,81,75,4.63,US,1699739725
27,opuwo,-18.0607,13.84,26.55,36,100,2.1,NA,1699739726
28,tremonton,41.7119,-112.1655,13.01,43,18,2.68,US,1699739726
29,avarua,-21.2078,-159.775,24.03,83,100,3.6,CK,1699739727
30,invercargill,-46.4,168.35,17.23,56,100,9.39,NZ,1699739727
31,quellon,-43.1167,-73.6167,7.19,70,91,7.95,CL,1699739728
32,bonthe,7.5264,-12.505,26.05,84,100,2.78,SL,1699739729
33,kigorobya,1.6162,31.3089,20.24,80,99,1.68,UG,1699739729
34,mananwala,31.5842,73.6878,17.47,55,0,1.41,PK,1699739730
35,eraan,9.0629,117.7016,25.9,86,9,0.6,PH,1699739730
36,champoton,19.35,-90.7167,27.23,85,79,1.91,MX,1699739731
37,la sarre,48.8002,-79.1996,-4.1,89,100,1.22,CA,1699739731
38,blackmans bay,-43.0167,147.3167,12.63,65,100,0.89,AU,1699739732
39,sorong,-0.8833,131.25,26.19,86,100,3.51,ID,1699739732
40,margaret river,-33.95,115.0667,11.44,75,43,6.19,AU,1699739733
41,peterborough,52.5736,-0.2478,4.04,93,63,2.57,GB,1699739733
42,bilibino,68.0546,166.4372,-30.65,99,26,2.04,RU,1699739734
43,yarega,63.4354,53.5765,-1.74,96,100,3.32,RU,1699739735
44,bereznik,62.8551,42.7072,1.11,99,100,1.51,RU,1699739735
45,port-aux-francais,-49.35,70.2167,2.92,69,9,7.77,TF,1699739736
46,georgetown,5.4112,100.3354,25.57,97,20,1.03,MY,1699739493
47,port lincoln,-34.7333,135.8667,13.76,64,99,6.55,AU,1699739737
48,egilsstadir,65.2653,-14.3948,-8.05,93,0,3.09,IS,1699739738
49,ust-nera,64.5667,143.2,-33.5,98,74,1.68,RU,1699739738
50,harnosand,62.6323,17.9379,-0.99,82,100,11.98,SE,1699739739
51,namibe,-15.1961,12.1522,21.12,76,69,1.91,AO,1699739740
52,manadhoo,5.7667,73.3833,27.82,75,98,1.39,MV,1699739740
53,touros,-5.1989,-35.4608,25.73,75,4,5.85,BR,1699739741
54,petropavlovsk-kamchatsky,53.0452,158.6483,0.33,98,40,9.0,RU,1699739741
55,upper hutt,-41.1383,175.0502,16.62,65,53,5.38,NZ,1699739743
56,qaqortoq,60.7167,-46.0333,-3.26,70,54,4.11,GL,1699739743
57,ushuaia,-54.8,-68.3,6.81,61,40,3.6,AR,1699739744
58,takoradi,4.8845,-1.7554,25.89,89,17,3.61,GH,1699739744
59,tiksi,71.6872,128.8694,-11.04,91,100,5.43,RU,1699739745
60,cabo san lucas,22.8909,-109.9124,30.34,54,0,5.14,MX,1699739124
61,anadyr,64.75,177.4833,-14.72,77,20,3.0,RU,1699739746
62,okhotsk,59.3833,143.3,-20.51,90,3,9.19,RU,1699739746
63,olonkinbyen,70.9221,-8.7187,1.28,89,93,4.78,SJ,1699739747
64,praia da vitoria,38.7333,-27.0667,20.14,83,20,6.97,PT,1699739747
65,enewetak,11.3474,162.3373,28.25,76,74,6.65,MH,1699739748
66,waddan,29.1614,16.139,21.39,26,0,1.62,LY,1699739748
67,albany,42.6001,-73.9662,4.65,62,3,4.47,US,1699739680
68,akureyri,65.6835,-18.0878,-7.04,93,0,1.03,IS,1699739750
69,mont-dore,-22.2833,166.5833,25.99,99,24,7.09,NC,1699739750
70,bredasdorp,-34.5322,20.0403,15.75,80,37,3.71,ZA,1699739750
71,kapa'a,22.0752,-159.319,28.18,77,100,5.14,US,1699739751
72,rongelap,11.1635,166.8941,27.44,82,99,7.58,MH,1699739751
73,ribeira grande,38.5167,-28.7,20.22,94,75,7.6,PT,1699739752
74,eyl,7.9803,49.8164,26.72,80,99,5.49,SO,1699739752
75,kailua-kona,19.6406,-155.9956,28.49,75,75,3.09,US,1699739753
76,inhambane,-23.865,35.3833,22.48,76,0,5.39,MZ,1699739753
77,hamilton,39.1834,-84.5333,10.73,52,0,4.12,US,1699739735
78,akrehamn,59.2667,5.1833,6.34,70,100,4.12,NO,1699739754
79,puerto ayora,-0.7393,-90.3518,28.98,87,78,3.58,EC,1699739754
80,utrik,11.2278,169.8474,27.45,85,99,8.04,MH,1699739755
81,aykhal,66.0,111.5,-15.14,97,85,2.93,RU,1699739755
82,arkhangel'sk,64.5401,40.5433,-7.15,98,61,0.72,RU,1699739756
83,severo-yeniseyskiy,60.3725,93.0408,-6.9,95,100,0.89,RU,1699739756
84,harrisburg,40.2737,-76.8844,11.96,55,75,3.09,US,1699739628
85,chibougamau,49.9168,-74.3659,-4.21,80,100,2.57,CA,1699739757
86,buckeye,33.3703,-112.5838,27.45,20,0,2.57,US,1699739758
87,san patricio,28.017,-97.5169,15.97,88,100,3.03,US,1699739758
88,mzuzu,-11.4656,34.0207,17.58,90,41,0.9,MW,1699739758
89,diekirch,49.8678,6.1558,6.42,97,34,1.83,LU,1699739759
90,port saint john's,-31.6229,29.5448,19.75,82,96,6.39,ZA,1699739759
91,nicoresti,45.9322,27.3087,11.62,63,96,6.38,RO,1699739760
92,iskateley,67.6803,53.1512,-8.88,95,22,3.13,RU,1699739760
93,papatowai,-46.5619,169.4708,15.95,48,100,6.96,NZ,1699739761
94,sao vicente,-23.9631,-46.3919,37.1,54,0,1.54,BR,1699739761
95,ciudad del carmen,18.6333,-91.8333,28.02,83,40,2.06,MX,1699739645
96,tamanrasset,22.785,5.5228,20.95,11,0,3.6,DZ,1699739762
97,antonio enes,-16.2325,39.9086,24.14,77,1,2.76,MZ,1699739763
98,port alfred,-33.5906,26.891,17.88,85,33,2.24,ZA,1699739764
99,mana,5.6592,-53.7767,26.9,83,7,6.55,GF,1699739764
100,yamada,39.4667,141.95,4.15,77,34,1.37,JP,1699739765
101,thompson,55.7435,-97.8558,2.09,75,75,3.6,CA,1699739765
102,longyearbyen,78.2186,15.6401,-1.09,69,100,10.29,SJ,1699739767
103,yellowknife,62.456,-114.3525,0.79,99,100,3.09,CA,1699739522
104,medfield,42.1876,-71.3065,7.64,55,2,2.75,US,1699739760
105,namtsy,62.7161,129.6658,-20.72,100,100,1.3,RU,1699739769
106,adjumani,3.3779,31.7909,22.33,66,47,0.7,UG,1699739770
107,calvinia,-31.4707,19.776,10.16,78,0,1.8,ZA,1699739770
108,santarem,-2.4431,-54.7083,32.07,62,0,5.14,BR,1699739771
109,da nang,16.0678,108.2208,24.99,94,20,0.51,VN,1699739771
110,luanda,-8.8368,13.2343,26.0,83,20,3.6,AO,1699739478
111,roses,42.262,3.1769,15.06,85,100,3.58,ES,1699739773
112,lorengau,-2.0226,147.2712,28.17,75,100,3.79,PG,1699739773
113,agustin codazzi,10.0341,-73.2361,32.99,81,100,1.45,CO,1699739774
114,aur,8.1499,171.1687,28.18,82,93,5.94,MH,1699739774
115,ola,59.5833,151.2833,-18.21,82,9,4.71,RU,1699739775
116,susuman,62.7833,148.1667,-33.78,99,81,0.1,RU,1699739775
117,gadzhiyevo,69.2551,33.3362,-5.95,94,94,2.66,RU,1699739776
118,port elizabeth,-33.918,25.5701,17.95,72,3,4.02,ZA,1699739562
119,urengoy,65.9667,78.3667,-0.19,95,100,6.22,RU,1699739777
120,port mathurin,-19.6833,63.4167,24.92,79,9,1.74,MU,1699739777
121,nadi,-17.8,177.4167,29.0,58,75,4.63,FJ,1699739778
122,tura,25.5198,90.2201,17.81,88,0,1.74,IN,1699739779
123,moody,33.5909,-86.4908,12.86,97,100,0.89,US,1699739779
124,fort st. john,56.2499,-120.8529,4.94,60,75,5.66,CA,1699739780
125,west island,-12.1568,96.8225,25.99,83,40,4.12,CC,1699739781
126,chasong,41.4608,126.6414,-9.33,90,6,0.96,KP,1699739781
127,saint-pierre,-21.3393,55.4781,21.82,83,100,2.06,RE,1699739700
128,birjand,32.8663,59.2211,8.26,42,0,4.12,IR,1699739783
129,hawaiian paradise park,19.5933,-154.9731,26.73,82,100,2.06,US,1699739783
130,jever,53.5833,7.9,7.33,93,5,2.06,DE,1699739784
131,savanna-la-mar,18.219,-78.1332,29.97,82,36,0.93,JM,1699739784
132,huazhou,21.6333,110.5833,23.66,89,68,2.87,CN,1699739785
133,new norfolk,-42.7826,147.0587,13.29,58,96,2.81,AU,1699739785
134,pariaman,-0.619,100.12,23.03,88,22,1.52,ID,1699739786
135,igarka,67.4667,86.5833,-8.27,95,100,6.25,RU,1699739786
136,viana do castelo,41.6932,-8.8329,17.66,92,96,5.58,PT,1699739787
137,tannum sands,-23.9504,151.3693,23.94,60,48,4.63,AU,1699739788
138,wailua homesteads,22.0669,-159.378,27.44,77,100,5.14,US,1699739788
139,afaahiti,-17.75,-149.2833,29.93,81,80,6.05,PF,1699739789
140,katsuura,35.1333,140.3,14.17,87,100,5.46,JP,1699739790
141,zayed city,24.3768,54.589,28.89,68,0,1.54,AE,1699739791
142,codajas,-3.8367,-62.0569,32.31,43,46,0.36,BR,1699739791
143,udachny,66.4167,112.4,-9.75,85,84,5.65,RU,1699739792
144,kingston,17.997,-76.7936,31.53,70,40,7.2,JM,1699739677
145,tongchuanshi,35.0806,109.0897,0.24,42,24,2.28,CN,1699739793
146,betio village,1.358,172.9211,28.02,81,100,6.37,KI,1699739794
147,kembe,4.6228,21.8865,21.32,97,100,0.41,CF,1699739794
148,sao tome,0.3365,6.7273,26.42,83,100,2.49,ST,1699739795
149,valdivia,-39.8142,-73.2459,9.05,55,5,3.81,CL,1699739796
150,remire-montjoly,4.9167,-52.2667,27.36,81,6,6.28,GF,1699739796
151,ilulissat,69.2167,-51.1,-6.99,42,100,3.6,GL,1699739797
152,bathurst,-33.4166,149.5806,24.98,54,30,1.79,AU,1699739797
153,namsos,64.4662,11.4957,1.03,60,20,7.72,NO,1699739798
154,tobelo,1.7284,128.0095,26.72,80,100,1.26,ID,1699739799
155,mount isa,-20.7333,139.5,25.87,73,12,2.06,AU,1699739799
156,chita,52.0333,113.55,-14.06,84,50,2.0,RU,1699739799
157,qulsary,46.9531,54.0198,4.85,71,0,2.98,KZ,1699739800
158,constantia,44.1833,28.65,9.38,63,51,11.99,RO,1699739801
159,langepas,61.2544,75.2124,0.37,99,100,3.19,RU,1699739801
160,ampanihy,-24.7,44.75,19.02,73,0,3.89,MG,1699739802
161,santa ana de yacuma,-13.75,-65.4333,35.97,46,40,5.14,BO,1699739802
162,moissala,8.3404,17.7663,23.44,80,67,1.66,TD,1699739802
163,aasiaat,68.7098,-52.8699,-10.03,81,100,4.32,GL,1699739803
164,sidi ifni,29.3797,-10.173,22.39,50,9,2.02,MA,1699739804
165,kirakira,-10.4544,161.9205,26.95,85,100,4.49,SB,1699739804
166,caazapa,-26.15,-56.4,30.06,69,32,1.93,PY,1699739804
167,peace river,56.2501,-117.286,8.17,57,75,7.2,CA,1699739805
168,buturlino,55.5667,44.8974,2.23,92,100,2.78,RU,1699739805
169,portland,45.5234,-122.6762,13.65,88,100,4.63,US,1699738953
170,helston,50.1032,-5.2705,11.82,86,100,7.2,GB,1699739806
171,chonchi,-42.6128,-73.8092,8.4,81,77,4.59,CL,1699739807
172,porto novo,6.4965,2.6036,28.9,86,10,3.36,BJ,1699739697
173,orchard homes,46.8633,-114.0484,13.0,45,94,4.92,US,1699739807
174,aral,40.5156,81.2636,5.86,40,14,2.28,CN,1699739808
175,sumbe,-11.2061,13.8437,25.05,88,100,1.85,AO,1699739808
176,cam ranh,11.9214,109.1591,25.98,89,40,1.54,VN,1699739809
177,sinabang,2.4803,96.3801,26.02,85,100,1.98,ID,1699739809
178,mountain home,43.133,-115.6912,14.71,36,0,4.63,US,1699739034
179,catanduva,-21.1378,-48.9728,30.3,23,26,3.87,BR,1699739586
180,zinjibar,13.1287,45.3807,27.15,72,70,5.74,YE,1699739811
181,kavaratti,10.5669,72.642,28.79,71,99,1.54,IN,1699739811
182,conception bay south,47.4999,-52.9981,2.73,92,100,9.43,CA,1699739812
183,keflavik,64.0049,-22.5624,3.24,81,75,6.69,IS,1699739812
184,talnakh,69.4865,88.3972,-6.55,94,100,4.31,RU,1699739813
185,yuzhno-kurilsk,44.0306,145.8556,2.43,80,38,6.63,RU,1699739813
186,mkushi,-13.6202,29.3939,19.98,75,23,2.78,ZM,1699739814
187,karratha,-20.7377,116.8463,22.73,61,4,4.81,AU,1699739814
188,hasaki,35.7333,140.8333,10.22,74,100,6.9,JP,1699739815
189,jamestown,42.097,-79.2353,5.77,73,100,3.6,US,1699739815
190,mohammedia,33.7066,-7.3944,19.23,100,100,5.14,MA,1699739579
191,harnai,30.1005,67.9374,15.18,32,57,1.13,PK,1699739816
192,iqaluit,63.7506,-68.5145,-10.15,85,75,6.17,CA,1699739817
193,colonia,50.9333,6.95,6.57,88,40,1.54,DE,1699739817
194,arraial do cabo,-22.9661,-42.0278,25.98,83,0,6.17,BR,1699739639
195,ginir,7.1333,40.7,14.05,84,77,1.73,ET,1699739818
196,kargopol',61.5071,38.9456,2.99,99,100,0.76,RU,1699739819
197,west valley,46.5921,-120.6051,13.75,48,20,9.26,US,1699739819
198,palikir - national government center,6.9248,158.1611,26.41,94,100,1.54,FM,1699739819
199,saldanha,-33.0117,17.9442,16.03,88,1,3.5,ZA,1699739820
200,ghormach,35.7306,63.7826,10.65,54,1,3.35,AF,1699739820
201,oum hadjer,13.2954,19.6966,27.99,22,42,3.71,TD,1699739821
202,lebu,-37.6167,-73.65,10.65,54,24,5.81,CL,1699739821
203,koungou,-12.7336,45.2042,26.84,83,0,1.03,YT,1699739822
204,college,64.8569,-147.8028,-9.03,86,75,1.54,US,1699739822
205,moroto,2.5345,34.6666,20.57,73,17,3.3,UG,1699739823
206,mugumu,-1.85,34.7,18.35,77,92,1.39,TZ,1699739823
207,sathupalli,17.2497,80.869,20.9,81,56,0.06,IN,1699739824
208,dapa,9.7594,126.0531,27.21,79,9,1.97,PH,1699739824
209,tofol,5.3248,163.0078,25.88,94,100,1.03,FM,1699739825
210,kone,-21.0595,164.8658,24.84,58,34,3.42,NC,1699739826
211,runing,33.0011,114.3542,1.29,86,2,2.19,CN,1699739826
212,worland,44.0169,-107.9554,12.25,30,0,1.54,US,1699739809
213,harper,4.375,-7.7169,25.63,88,45,2.82,LR,1699739827
214,nagqu,31.5,92.0,-5.42,61,100,5.41,CN,1699739828
215,walvis bay,-22.9575,14.5053,17.53,77,97,0.0,NA,1699739828
216,sen monorom,12.45,107.2,19.26,96,89,1.89,KH,1699739829
217,al ghayzah,16.2079,52.176,27.43,68,100,3.32,YE,1699739829
218,bage,-31.3314,-54.1069,22.58,90,83,2.46,BR,1699739830
219,al kharijah,25.4514,30.5464,26.44,38,100,3.69,EG,1699739830
220,richards bay,-28.783,32.0377,22.04,85,100,5.35,ZA,1699739671
221,monrovia,6.3005,-10.7969,24.87,84,49,1.24,LR,1699739831
222,gaspe,48.8334,-64.4819,0.95,80,100,2.57,CA,1699739625
223,pangody,65.85,74.4859,0.25,98,100,6.64,RU,1699739833
224,urumqi,43.801,87.6005,-1.47,100,100,1.0,CN,1699739835
225,hithadhoo,-0.6,73.0833,27.21,82,60,5.06,MV,1699739835
226,mildura,-34.2,142.15,14.48,58,39,6.4,AU,1699739836
227,mount gambier,-37.8333,140.7667,13.22,57,7,3.87,AU,1699739837
228,sihanoukville,10.6093,103.5296,26.97,89,40,2.06,KH,1699739837
229,i-n-salah,27.1935,2.4607,23.12,25,0,4.68,DZ,1699739838
230,haiku-pauwela,20.9219,-156.3051,28.98,54,40,9.77,US,1699739838
231,punta arenas,-53.15,-70.9167,8.06,57,0,8.75,CL,1699739839
232,kourou,5.1552,-52.6478,26.91,83,6,5.25,GF,1699739839
233,karwar,14.8,74.1333,24.85,65,26,3.29,IN,1699739840
234,katima mulilo,-17.5,24.2667,24.88,30,39,2.6,NA,1699739841
235,vorkuta,67.5,64.0,-6.61,97,100,3.83,RU,1699739841
236,malango,-2.9627,119.9001,19.77,96,97,0.79,ID,1699739842
237,male,4.1748,73.5089,26.97,89,75,1.54,MV,1699739842
238,saynshand,44.8824,110.1163,-15.52,82,3,2.03,MN,1699739842
239,barra de santo antonio,-9.4047,-35.5072,24.6,72,62,3.89,BR,1699739843
240,hermantown,46.8069,-92.2383,3.4,79,100,5.14,US,1699739759
241,motueka,-41.1333,173.0167,21.17,38,0,0.66,NZ,1699739844
242,guerrero negro,27.9769,-114.0611,24.79,23,0,4.3,MX,1699739845
243,huilong,31.8111,121.655,10.72,89,100,8.43,CN,1699739845
244,paradip garh,20.3167,86.6167,22.59,69,6,3.23,IN,1699739846
245,atafu village,-8.5421,-172.5159,28.82,75,51,3.53,TK,1699739846
246,kaman,27.65,77.2667,18.11,61,0,2.64,IN,1699739847
247,port augusta,-32.5,137.7667,18.5,46,49,8.83,AU,1699739847
248,tralee,52.2704,-9.7026,8.16,90,100,8.57,IE,1699739848
249,atbara,17.7022,33.9864,32.39,26,96,1.15,SD,1699739848
250,zhongshu,24.5167,103.7667,12.55,89,2,0.99,CN,1699739849
251,ribeira brava,32.65,-17.0667,22.35,79,100,2.53,PT,1699739850
252,hadibu,12.65,54.0333,26.53,86,100,6.07,YE,1699739850
253,humberto de campos,-2.5983,-43.4611,26.04,75,4,3.37,BR,1699739851
254,kargil,34.5667,76.1,-0.7,52,4,0.65,IN,1699739851
255,fale old settlement,-9.3852,-171.2468,28.77,74,96,3.0,TK,1699739852
256,okha,53.5739,142.9478,-6.12,90,100,8.44,RU,1699739852
257,stanley,54.868,-1.6985,4.6,95,75,1.03,GB,1699739553
258,hami,42.8,93.45,4.12,26,100,2.95,CN,1699739853
259,liman,48.9884,37.8023,8.9,54,100,6.69,UA,1699739854
260,geraldton,-28.7667,114.6,16.23,77,47,4.63,AU,1699739854
261,poronaysk,49.2167,143.1167,-6.58,76,91,5.17,RU,1699739855
262,jumla,29.2747,82.1838,5.14,69,0,1.65,NP,1699739855
263,obo,5.3998,26.4869,20.78,95,90,1.34,CF,1699739856
264,zyrya,40.3661,50.2917,16.05,77,100,9.85,AZ,1699739857
265,berezovyy,51.6667,135.7,-11.05,57,7,2.52,RU,1699739857
266,simanggang,1.2472,111.4528,23.99,100,99,0.0,MY,1699739858
267,lido di ostia,41.7321,12.2765,14.47,60,20,1.54,IT,1699739859
268,nuuk,64.1835,-51.7216,-5.07,73,34,4.47,GL,1699739859
269,aldama,22.9167,-98.0667,21.94,72,100,3.09,MX,1699739860
270,ulety,51.3572,112.4849,-14.41,96,10,1.71,RU,1699739860
271,broome,42.2506,-75.833,5.39,75,100,4.12,US,1699739861
272,york,40.1254,-77.0,11.44,51,100,2.33,US,1699739605
273,selfoss,63.9331,-20.9971,1.69,83,100,4.72,IS,1699739862
274,altay,47.8667,88.1167,-2.15,81,97,2.72,CN,1699739862
275,ca mau,9.1769,105.15,25.06,94,62,2.33,VN,1699739863
276,onguday,50.75,86.15,-4.44,95,97,1.48,RU,1699739863
277,kapuskasing,49.4169,-82.4331,-1.95,93,75,3.6,CA,1699739863
278,balabac,7.9868,117.0645,27.47,79,19,3.36,PH,1699739864
279,vernon,50.2581,-119.2691,12.34,59,97,2.68,CA,1699739864
280,pedregal,8.3667,-82.4333,29.05,84,75,3.58,PA,1699739865
281,ojuelos de jalisco,21.8667,-101.5833,19.32,58,100,4.2,MX,1699739865
282,tual,-5.6667,132.75,27.87,78,83,4.32,ID,1699739866
283,hailun,47.45,126.9333,-17.25,95,13,1.16,CN,1699739866
284,pecos,31.4229,-103.4932,13.5,66,100,0.0,US,1699739867
285,st. john's,47.5649,-52.7093,2.86,93,100,9.77,CA,1699739663
286,mormugao,15.4,73.8,25.59,73,20,3.09,IN,1699739868
287,lionel town,17.8101,-77.2406,31.94,73,43,4.76,JM,1699739868
288,freetown,8.484,-13.2299,25.84,94,75,1.54,SL,1699739719
289,luderitz,-26.6481,15.1594,17.87,59,0,9.86,NA,1699739869
290,gwanda,-20.9333,29.0,22.48,39,44,2.55,ZW,1699739869
291,colombo,6.9319,79.8478,26.15,83,99,0.71,LK,1699739870
292,nemuro,43.3236,145.575,1.79,69,3,6.93,JP,1699739870
293,azadshahr,34.7909,48.5707,6.27,70,0,1.03,IR,1699739871
294,holualoa,19.6228,-155.9522,26.42,75,75,3.09,US,1699739871
295,anar darah,32.7587,61.654,12.89,56,11,3.65,AF,1699739872
296,flying fish cove,-10.4217,105.6791,25.82,78,100,4.12,CX,1699739872
297,imbituba,-28.24,-48.6703,22.09,98,100,1.01,BR,1699739873
298,capao da canoa,-29.7456,-50.0097,22.54,89,100,6.6,BR,1699739873
299,la passe,45.5549,-0.8967,14.99,95,100,10.13,FR,1699739874
300,newman,37.3138,-121.0208,21.75,36,68,0.89,US,1699739874
301,vilyuchinsk,52.9306,158.4028,1.15,72,58,17.59,RU,1699739874
302,leava,-14.3,-178.1667,28.0,81,100,5.75,WF,1699739875
303,castillos,-34.1667,-53.8333,18.78,82,19,2.82,UY,1699739875
304,dawei,14.0833,98.2,24.77,89,100,1.32,MM,1699739876
305,barah,13.7,30.3667,29.35,40,80,2.08,SD,1699739876
306,yarmouth,41.7057,-70.2286,8.87,63,0,8.49,US,1699739800
307,sidi khaled,34.387,4.9879,19.58,49,5,3.19,DZ,1699739877
308,dali,25.7,100.1833,9.26,87,2,0.72,CN,1699739877
309,cidreira,-30.1811,-50.2056,22.18,90,100,4.37,BR,1699739878
310,ishigaki,24.3448,124.1572,23.07,94,75,9.77,JP,1699739878
311,kokstad,-30.5472,29.4241,14.34,92,99,1.26,ZA,1699739879
312,tchintabaraden,15.8969,5.7985,26.07,14,3,3.87,NE,1699739881
313,ancud,-41.8697,-73.8203,8.18,62,42,9.05,CL,1699739881
314,queenstown,-31.8976,26.8753,14.01,75,95,3.28,ZA,1699739881
315,holly springs,35.6513,-78.8336,12.54,69,100,0.89,US,1699739772
316,sitia,35.2,26.0986,21.02,80,30,4.68,GR,1699739882
317,nar'yan-mar,67.6713,53.087,-8.83,95,19,3.13,RU,1699739883
318,sheopur,25.6667,76.7,17.85,64,0,1.87,IN,1699739884
319,ballina,-28.8667,153.5667,23.21,68,10,3.9,AU,1699739884
320,malanje,-9.5402,16.341,18.04,97,86,0.64,AO,1699739885
321,aripuana,-9.1667,-60.6333,29.63,57,97,1.31,BR,1699739885
322,east london,-33.0153,27.9116,19.05,74,62,7.47,ZA,1699739886
323,turbat,26.0023,63.044,23.26,19,56,1.62,PK,1699739887
324,dudinka,69.4058,86.1778,-6.32,96,100,4.02,RU,1699739887
325,san felipe,10.3399,-68.7425,25.36,92,99,1.07,VE,1699739888
326,san antonio de pale,-1.4014,5.6325,26.24,83,100,4.98,GQ,1699739889
327,al muwayh,22.4333,41.7583,22.01,30,46,5.21,SA,1699739889
328,fortuna foothills,32.6578,-114.4119,26.79,15,0,4.63,US,1699739890
329,port macquarie,-31.4333,152.9167,24.94,69,10,5.24,AU,1699739786
330,awjilah,29.1081,21.2869,21.01,44,0,2.71,LY,1699739891
331,ratnagiri,16.9833,73.3,26.36,58,100,2.7,IN,1699739892
332,canutama,-6.5339,-64.3831,32.56,46,78,0.6,BR,1699739892
333,metlili chaamba,32.2667,3.6333,20.52,30,0,3.09,DZ,1699739893
334,asadabad,34.7824,48.1185,7.97,41,64,0.68,IR,1699739893
335,sake,-1.5736,29.045,18.07,96,100,0.19,CD,1699739894
336,klyuchi,52.2667,79.1667,4.2,80,100,5.45,RU,1699739894
337,north ward,-19.2454,146.8075,25.95,61,40,3.6,AU,1699739895
338,nowshahr,36.649,51.496,13.97,100,20,0.0,IR,1699739896
339,la rinconada,37.4873,-5.9826,18.36,83,93,1.19,ES,1699739896
340,djibo,14.1022,-1.6306,29.32,11,75,2.93,BF,1699739897
341,fauske,67.2588,15.3918,1.02,78,1,4.52,NO,1699739897
342,arteche,12.2645,125.4048,26.15,86,70,1.7,PH,1699739898
343,kanniyakumari,8.0833,77.5667,24.91,87,100,7.54,IN,1699739898
344,kruisfontein,-34.0033,24.7314,14.96,76,6,7.43,ZA,1699739752
345,uturoa,-16.7333,-151.4333,27.39,80,96,5.12,PF,1699739899
346,margate,51.3813,1.3862,4.94,72,76,2.13,GB,1699739900
347,urangan,-25.3,152.9,23.05,62,12,4.21,AU,1699739900
348,tolanaro,-25.0319,46.9987,22.04,68,20,5.14,MG,1699739901
349,pisco,-13.7,-76.2167,23.03,68,20,7.2,PE,1699739902
350,alofi,-19.0595,-169.9187,22.94,94,100,8.75,NU,1699739903
351,general pico,-35.6566,-63.7568,25.38,44,1,1.29,AR,1699739903
352,natal,-5.795,-35.2094,27.12,69,20,6.17,BR,1699739619
353,xining,36.6167,101.7667,-3.66,58,30,0.25,CN,1699739904
354,goure,13.9835,10.2704,27.29,19,82,3.26,NE,1699739905
355,grand falls-windsor,48.9332,-55.6649,1.39,88,100,0.89,CA,1699739905
356,turpan,42.9333,89.1667,5.69,33,13,0.35,CN,1699739906
357,atamanovka,51.93,113.63,-12.76,98,43,1.31,RU,1699739906
358,northam,51.0333,-4.2167,9.25,87,100,6.49,GB,1699739907
359,hammerfest,70.6634,23.6821,-2.75,74,0,1.03,NO,1699739907
360,franklin,39.9667,-83.0166,9.35,61,100,4.12,US,1699739908
361,piti village,13.4626,144.6933,29.61,77,0,6.69,GU,1699739908
362,shevchenko,48.5,35.0,10.92,88,100,9.85,UA,1699739909
363,mucuri,-18.0864,-39.5508,25.85,74,2,7.34,BR,1699739909
364,dzhangala,49.2167,50.3333,3.17,79,9,1.08,KZ,1699739910
365,xapuri,-10.6517,-68.5044,34.19,36,93,1.52,BR,1699739910
366,nova vicosa,-17.8919,-39.3719,25.64,76,1,7.7,BR,1699739704
367,rifle,39.5347,-107.7831,12.99,20,0,4.63,US,1699739911
368,lamu,-2.2717,40.902,24.12,85,31,2.75,KE,1699739912
369,taoudenni,22.6783,-3.9836,26.7,14,0,4.02,ML,1699739912
370,xichang,27.8964,102.2634,10.61,89,9,0.78,CN,1699739913
371,ivdel',60.6911,60.4206,2.33,91,99,1.34,RU,1699739914
372,bihac,44.8169,15.8708,4.74,88,0,2.23,BA,1699739914
373,tromso,69.6496,18.957,-5.99,93,0,0.0,NO,1699739915
374,priozersk,61.0393,30.1291,6.67,88,100,3.07,RU,1699739915
375,albertina,-22.2008,-46.6158,25.24,34,27,2.08,BR,1699739916
376,ciudad lazaro cardenas,17.9583,-102.2,29.01,70,4,3.36,MX,1699739916
377,puerto deseado,-47.7503,-65.8938,8.6,81,100,14.71,AR,1699739917
378,island harbour,50.724,-1.2758,9.15,93,100,0.89,GB,1699739917
379,cockburn town,21.4612,-71.1419,28.24,74,90,10.02,TC,1699739918
380,west plains,36.7281,-91.8524,12.59,46,20,3.13,US,1699739918
381,icano,-28.9193,-65.3282,32.78,38,0,6.64,AR,1699739919
382,robertsport,6.7533,-11.3686,26.33,80,76,2.6,LR,1699739919
383,klin,56.3333,36.7333,4.33,84,100,3.7,RU,1699739920
384,susanville,40.4163,-120.653,14.89,47,0,1.54,US,1699739920
385,kudymkar,59.0173,54.656,-1.0,92,41,1.88,RU,1699739921
386,weno,7.4515,151.8468,28.97,84,75,2.06,FM,1699739921
387,brookings,44.3114,-96.7984,11.92,51,0,4.12,US,1699739884
388,lesosibirsk,58.2358,92.4828,-5.05,95,100,1.88,RU,1699739922
389,the pas,53.8251,-101.2541,3.01,70,0,8.75,CA,1699739923
390,st ives,50.2086,-5.4875,11.71,91,100,11.87,GB,1699739923
391,ishinomaki,38.4167,141.3,3.0,76,70,2.65,JP,1699739924
392,nacozari viejo,30.4,-109.65,19.21,26,0,1.53,MX,1699739924
393,dawson creek,55.7666,-120.2362,6.8,57,75,6.17,CA,1699739925
394,sao gabriel da cachoeira,-0.1303,-67.0892,27.67,80,99,0.22,BR,1699739925
395,sisimiut,66.9395,-53.6735,-6.53,89,100,5.9,GL,1699739926
396,coahuayana de hidalgo,18.7,-103.6583,30.19,66,48,2.12,MX,1699739927
397,lata,40.1629,-8.3327,17.82,96,97,3.51,PT,1699739927
398,kulhudhuffushi,6.6221,73.07,27.75,76,100,2.26,MV,1699739928
399,ipatovo,45.7181,42.9036,8.28,84,98,8.92,RU,1699739928
400,bel ombre,-4.6167,55.4167,27.91,78,40,2.06,SC,1699739929
401,kill devil hills,36.0307,-75.676,15.55,61,100,3.6,US,1699739929
402,khandyga,62.6667,135.6,-24.47,99,100,1.32,RU,1699739930
403,vila velha,-20.3297,-40.2925,26.97,87,0,4.63,BR,1699739930
404,brignoles,43.4,6.0667,11.5,71,94,2.6,FR,1699739931
405,cachoeira do sul,-30.0392,-52.8939,22.96,98,99,2.37,BR,1699739931
406,nurmes,63.5421,29.1397,-3.94,84,79,5.03,FI,1699739932
407,krasnokamensk,50.0979,118.0369,-17.83,90,13,1.93,RU,1699739932
408,mil'kovo,55.6078,37.7956,4.67,85,100,4.68,RU,1699739932
409,tenno,39.9,139.9667,3.56,55,100,3.84,JP,1699739933
410,roswell,34.0232,-84.3616,11.39,89,100,2.57,US,1699739933
411,salinopolis,-0.6136,-47.3561,27.51,75,9,6.43,BR,1699739934
412,kavieng,-2.5744,150.7967,28.29,74,100,3.09,PG,1699739934
413,baardheere,2.3446,42.2764,26.04,81,95,5.69,SO,1699739935
414,lagoa vermelha,-28.2086,-51.5258,22.23,89,65,0.83,BR,1699739935
415,thinadhoo,0.5333,72.9333,27.33,82,100,5.02,MV,1699739935
416,envira,-7.3,-70.2167,31.47,52,90,1.72,BR,1699739936
417,codrington,-38.2667,141.9667,14.35,53,79,6.43,AU,1699739936
418,ta`u,-14.2336,-169.5144,27.55,80,39,4.38,AS,1699739937
419,bakanas,44.8081,76.2772,9.53,71,100,6.81,KZ,1699739937
420,claveria,18.6074,121.0832,25.71,89,48,5.28,PH,1699739938
421,lerwick,60.1545,-1.1494,5.0,75,100,5.83,GB,1699739938
422,lewiston orchards,46.3804,-116.9754,14.95,46,75,10.8,US,1699739938
423,toamasina,-18.1667,49.3833,22.0,100,75,3.6,MG,1699739939
424,xilin hot,43.9667,116.0333,-16.91,92,56,1.45,CN,1699739939
425,rudnichnyy,59.617,52.4703,-1.21,81,93,2.62,RU,1699739940
426,yeraliyev,43.2,51.65,10.2,63,33,6.14,KZ,1699739940
427,montfort-sur-meu,48.1333,-1.9667,9.94,93,75,5.14,FR,1699739941
428,apaseo el alto,20.45,-100.6167,23.27,46,81,5.02,MX,1699739941
429,champerico,14.3,-91.9167,35.3,75,14,2.44,GT,1699739942
430,pandan,14.0453,124.1694,26.86,81,98,3.11,PH,1699739943
431,tazovsky,67.4667,78.7,-4.16,96,100,5.43,RU,1699739943
432,gandajika,-6.75,23.95,20.69,92,89,0.43,CD,1699739944
433,uniao da vitoria,-26.23,-51.0864,23.57,79,24,0.86,BR,1699739738
434,corinto,37.9407,22.9573,15.5,74,77,3.01,GR,1699739945
435,rabigh,22.7986,39.0349,29.17,53,50,0.75,SA,1699739945
436,ciutadella,40.0011,3.8414,17.45,83,54,4.24,ES,1699739946
437,port-vila,-17.7338,168.3219,21.78,94,100,3.6,VU,1699739946
438,hermanus,-34.4187,19.2345,16.23,80,65,4.09,ZA,1699739947
439,kurchatov,51.6601,35.6521,7.45,71,100,7.75,RU,1699739948
440,arys,42.4252,68.795,8.13,78,42,3.27,KZ,1699739948
441,pont rouge,48.8833,-72.0825,-0.84,85,100,3.75,CA,1699739949
442,fendou,46.65,124.8667,-10.9,76,11,2.73,CN,1699739950
443,las tablas,7.7667,-80.2833,23.93,93,100,2.76,PA,1699739950
444,salalah,17.0151,54.0924,27.05,68,100,1.08,OM,1699739951
445,ponta delgada,37.7333,-25.6667,20.1,100,75,3.6,PT,1699739951
446,taltal,-25.4,-70.4833,19.23,66,22,2.61,CL,1699739952
447,yasuj,30.6682,51.588,8.75,53,0,0.0,IR,1699739952
448,hyesan,41.4017,128.1778,-10.35,76,4,0.62,KP,1699739953
449,jayapura,-2.5333,140.7,26.66,89,100,1.82,ID,1699739953
450,kalabo,-14.97,22.6814,25.6,47,97,1.57,ZM,1699739954
451,princeville,45.7668,-61.2985,4.06,94,100,1.54,CA,1699739955
452,jiangkou,25.4872,119.1986,18.86,75,89,4.88,CN,1699739955
453,lockport,41.5895,-88.0578,10.67,59,0,3.6,US,1699739732
454,la ronge,55.1001,-105.2842,2.14,69,75,7.2,CA,1699739663
455,yamba,-5.9,22.3,20.98,99,88,0.58,CD,1699739957
456,sokoni,-6.4333,39.55,26.73,83,93,5.87,TZ,1699739957
457,bowen,-20.0167,148.2333,24.46,61,53,6.12,AU,1699739958
458,prince george,53.9166,-122.753,6.69,75,100,6.17,CA,1699739828
459,port pirie,-33.1833,138.0167,17.04,44,35,5.47,AU,1699739960
460,seaside,36.6111,-121.8516,23.42,53,0,3.09,US,1699739920
461,grenada,37.1882,-3.6067,11.2,85,0,1.54,ES,1699739961
462,baihe,22.15,107.2333,21.86,95,96,2.4,CN,1699739962
463,arawa,-6.2132,155.5367,27.81,76,100,2.59,PG,1699739962
464,ilebo,-4.3167,20.5833,20.23,100,100,0.81,CD,1699739963
465,macia,-25.0269,33.0989,22.9,62,3,3.85,MZ,1699739963
466,isangel,-19.55,169.2667,25.06,65,15,4.12,VU,1699739964
467,labrador city,52.9463,-66.9114,-5.05,80,100,6.17,CA,1699739964
468,fortuna,40.5982,-124.1573,18.85,63,0,2.57,US,1699739964
469,nova xavantina,-14.6667,-52.35,34.11,27,75,2.53,BR,1699739965
470,kidal,18.4411,1.4078,26.79,9,0,4.65,ML,1699739966
471,manokwari,-0.8667,134.0833,26.38,78,100,1.6,ID,1699739966
472,kitimat,54.0524,-128.6534,6.06,78,100,3.13,CA,1699739967
473,quelimane,-17.8786,36.8883,23.97,83,0,2.68,MZ,1699739967
474,salekhard,66.53,66.6019,-10.3,99,91,2.49,RU,1699739968
475,nuku'alofa,-21.1333,-175.2,24.19,73,100,6.69,TO,1699739968
476,shatrovo,56.5167,64.6333,0.0,97,93,2.0,RU,1699739969
477,karema,-6.8205,30.4389,23.38,81,55,1.74,TZ,1699739969
478,balkanabat,39.5108,54.3671,13.98,33,24,5.24,TM,1699739970
479,pauini,-7.7136,-66.9764,31.14,54,79,1.6,BR,1699739970
480,nova olinda do norte,-3.8881,-59.0942,32.45,45,71,1.19,BR,1699739971
481,sur,22.5667,59.5289,25.83,55,98,3.21,OM,1699739972
482,faro,37.0194,-7.9322,17.76,88,0,3.09,PT,1699739973
483,nabire,-3.3667,135.4833,25.5,77,84,2.35,ID,1699739974
484,laojunmiao,39.8333,97.7333,-0.71,42,100,0.92,CN,1699739974
485,kahama,-3.8333,32.6,22.88,62,99,2.0,TZ,1699739975
486,sol'-iletsk,51.1631,54.9918,2.3,88,50,4.27,RU,1699739975
487,katsuren-haebaru,26.3369,127.8719,20.21,94,40,5.14,JP,1699739976
488,corumba,-19.0092,-57.6533,37.95,32,0,5.14,BR,1699739976
489,vega de alatorre,20.0333,-96.6333,22.75,91,88,5.31,MX,1699739977
490,kununurra,-15.7667,128.7333,23.99,94,40,0.51,AU,1699739977
491,carutapera,-1.195,-46.02,26.71,76,21,4.07,BR,1699739978
492,east ballina,-28.8667,153.5833,23.22,68,10,4.16,AU,1699739978
493,dunedin,-45.8742,170.5036,17.82,64,52,6.71,NZ,1699739979
494,muynoq,43.7683,59.0214,6.51,70,2,4.46,UZ,1699739979
495,inyonga,-6.7167,32.0667,24.36,49,97,1.26,TZ,1699739980
496,tazacorte,28.629,-17.9293,21.75,85,100,5.66,ES,1699739980
497,sinjai,-5.1241,120.253,23.93,77,70,1.36,ID,1699739981
498,kristiansund,63.1115,7.732,2.36,69,75,2.57,NO,1699739981
499,punta del este,-34.9667,-54.95,22.2,79,0,4.12,UY,1699739982
500,burgersdorp,-30.9977,26.3286,15.94,73,62,5.0,ZA,1699739982
501,nantucket,41.2835,-70.0995,7.3,69,8,8.32,US,1699739982
502,koryazhma,61.3143,47.1691,-0.05,96,100,2.29,RU,1699739983
503,hirara,24.8,125.2833,22.92,94,100,9.77,JP,1699739983
504,troy,42.6056,-83.1499,8.23,61,40,2.06,US,1699739984
505,thap khlo,16.16,100.5966,26.58,99,100,1.28,TH,1699739984
506,kupang,-10.1667,123.5833,28.32,78,20,2.57,ID,1699739985
507,auki,-8.7676,160.7034,26.37,90,100,4.64,SB,1699739985
508,davis,41.0005,-112.0013,13.71,33,0,1.54,US,1699739985
509,verkhnevilyuysk,63.4453,120.3167,-10.13,91,64,4.2,RU,1699739986
510,at taraf,25.3628,49.725,26.3,64,100,1.95,SA,1699739986
511,twon-brass,4.3151,6.2418,27.03,83,79,4.03,NG,1699739987
512,beira,-19.8436,34.8389,21.05,100,0,1.54,MZ,1699739987
513,ambalangoda,6.2355,80.0538,25.51,87,97,1.85,LK,1699739988
514,tauranga,-37.6861,176.1667,19.92,65,4,1.79,NZ,1699739988
515,bisalpur,28.3,79.8,17.33,65,0,2.92,IN,1699739989
516,tsiombe,-25.3,45.4833,20.55,68,0,6.59,MG,1699739989
517,gediz,39.0417,29.41,14.61,77,100,6.99,TR,1699739989
518,beipiao,41.7919,120.7792,-9.71,80,19,1.24,CN,1699739990
519,cozumel,20.5083,-86.9458,30.04,88,75,3.6,MX,1699739990
520,lautoka,-17.6167,177.4667,28.92,58,75,4.63,FJ,1699739991
521,conduaga,8.862,117.4893,26.12,84,8,1.34,PH,1699739991
522,dogonbadan,30.3586,50.7981,17.05,45,0,0.0,IR,1699739992
523,huarmey,-10.0681,-78.1522,21.94,75,17,5.86,PE,1699739992
524,flin flon,54.7682,-101.865,2.91,70,0,5.14,CA,1699739992
525,skeldon,5.8833,-57.1333,27.34,80,65,4.16,GY,1699739993
526,husainabad,24.5333,84.0167,20.41,64,2,0.42,IN,1699739993
527,shimabara,32.7833,130.3667,13.17,64,100,3.65,JP,1699739995
528,prince rupert,54.3161,-130.3201,8.05,73,75,7.72,CA,1699739995
529,vengurla,15.8667,73.6333,25.65,61,46,2.59,IN,1699739996
530,selebi-phikwe,-21.979,27.8498,23.12,33,14,2.35,BW,1699739996
531,bathsheba,13.2167,-59.5167,26.34,89,40,6.69,BB,1699739997
532,kamuli,0.9472,33.1197,19.33,84,100,0.67,UG,1699739998
533,gaurela,22.75,81.9,17.56,67,7,2.19,IN,1699739998
534,maroantsetra,-15.4333,49.7333,24.13,90,97,4.1,MG,1699739999
535,sabang,5.8933,95.3214,26.74,81,100,3.94,ID,1699739999
536,tiaret,35.371,1.317,12.69,76,0,1.03,DZ,1699739999
537,anuppur,23.1,81.6833,18.15,68,1,1.75,IN,1699740000
538,harrison,30.4091,-89.0436,19.04,87,100,5.14,US,1699739954
539,bandarbeyla,9.4942,50.8122,26.72,83,89,7.5,SO,1699740001
540,pelabuhanratu,-6.9875,106.5514,24.83,89,94,1.43,ID,1699740003
541,eshowe,-28.8865,31.4699,17.86,88,96,0.45,ZA,1699740004
542,cill airne,52.05,-9.5167,8.39,92,100,7.83,IE,1699740006
543,fort bragg,35.139,-79.006,12.12,86,100,2.06,US,1699740007
544,phalaborwa,-23.943,31.1411,25.6,46,36,1.83,ZA,1699740009
545,santiago de cuba,20.0247,-75.8219,28.58,69,57,2.4,CU,1699740013
546,big rapids,43.6981,-85.4837,7.61,66,100,1.54,US,1699740015
547,caleta de carquin,-11.0925,-77.6267,21.43,76,33,6.21,PE,1699740016
548,banda aceh,5.5577,95.3222,26.55,82,100,1.57,ID,1699740020
549,kapoeta,4.7717,33.5903,28.33,45,36,4.6,SS,1699740022
550,tuni,17.35,82.55,21.84,78,35,1.82,IN,1699740023
551,tutoia,-2.7619,-42.2744,26.4,82,18,5.88,BR,1699739947
552,dzilam gonzalez,21.2833,-88.9333,29.52,68,99,3.14,MX,1699740025
553,christchurch,-43.5333,172.6333,20.82,52,78,2.06,NZ,1699739966
554,montana,43.4125,23.225,9.07,71,28,4.88,BG,1699740028
555,kindu,-2.95,25.95,21.52,94,100,1.06,CD,1699740032
556,ad dabbah,18.05,30.95,28.47,27,16,2.61,SD,1699740035
557,morehead city,34.7229,-76.726,13.32,90,100,4.63,US,1699739871
558,kasongo-lunda,-6.4667,16.8167,21.14,98,69,0.48,CD,1699740036
559,calingasta,-31.3308,-69.4078,24.87,8,0,11.16,AR,1699740037
560,beau vallon,-20.4189,57.6953,23.45,88,75,1.54,MU,1699740038
561,bikenibeu village,1.3673,173.1241,27.98,89,100,5.66,KI,1699740039
562,kisangani,0.5167,25.2,20.47,96,99,0.18,CD,1699740040
563,ulsteinvik,62.3432,5.8487,4.07,70,3,1.34,NO,1699740041
564,bodo,67.28,14.405,1.02,62,0,11.83,NO,1699739881
565,krasnyy chikoy,50.3643,108.7512,-15.61,97,45,1.16,RU,1699740042
566,revda,56.801,59.9303,1.33,99,100,1.39,RU,1699740043
567,am timan,11.0297,20.2827,26.15,63,22,2.5,TD,1699740044
568,devonport,-41.1667,146.35,14.18,65,50,1.34,AU,1699740045
569,karasu,41.071,30.7854,18.37,75,100,4.33,TR,1699740047
570,manaure,11.7751,-72.4445,30.37,68,73,7.69,CO,1699740047
571,gisborne,-38.6533,178.0042,18.12,54,0,2.68,NZ,1699739915
572,chigorodo,7.6664,-76.6811,30.89,74,75,1.54,CO,1699740048
573,nogliki,51.8333,143.1667,-10.37,80,87,6.71,RU,1699740049
574,howard springs,-12.497,131.047,28.82,74,61,2.48,AU,1699740049
575,dauphin,51.1494,-100.0502,2.08,69,0,4.12,CA,1699740035
576,ceelbuur,4.685,46.6176,24.63,86,98,1.73,SO,1699740051
577,zhosaly,45.4878,64.0781,7.18,66,97,7.48,KZ,1699740052
578,rudbar,30.15,62.6,17.95,33,99,2.68,AF,1699740053
579,aioun,16.6614,-9.6149,27.77,10,24,4.3,MR,1699740053
580,vadso,70.0744,29.7487,-1.91,86,75,4.12,NO,1699740054
581,caluula,11.9661,50.7569,27.27,81,98,6.29,SO,1699740055
